<?xml version="1.0" encoding="UTF-8"?>
<doc>
    <objects>
        <object class="WED_Root" id="1" parent_id="0">
            <sources/>
            <viewers/>
            <children>
                <child id="2"/>
                <child id="3"/>
                <child id="4"/>
            </children>
            <hierarchy name="root"/>
        </object>
        <object class="WED_ObjPlacement" id="513" parent_id="579">
            <sources/>
            <viewers/>
            <children/>
            <hierarchy hidden="0" locked="1" name="lib/airport/Common_Elements/Miscellaneous/One_Traffic_Cone.obj"/>
            <point heading="0.00" latitude="34.198303560" longitude="-119.198456190"/>
            <obj_placement custom_msl="0" msl="0.000" resource="lib/airport/Common_Elements/Miscellaneous/One_Traffic_Cone.obj" show_level="4 Mega tons"/>
        </object>
        <object class="WED_AirportNode" id="65" parent_id="10">
            <sources/>
            <viewers/>
            <children/>
            <hierarchy hidden="0" locked="0" name="unnamed entity"/>
            <point ctrl_latitude_hi="0.000000000" ctrl_latitude_lo="0.000000000" ctrl_longitude_hi="0.000000000" ctrl_longitude_lo="0.000000000" latitude="34.200528110" longitude="-119.203072326" split="0"/>
            <markings>
                <marking value="Solid Yellow"/>
                <marking value="Taxiway Edge Lights (Blue)"/>
            </markings>
        </object>
        <object class="WED_ObjPlacement" id="577" parent_id="576">
            <sources/>
            <viewers/>
            <children/>
            <hierarchy hidden="0" locked="0" name="lib/airport/Common_Elements/Hangars/Long_Row_Beige.agp"/>
            <point heading="270.00" latitude="34.199153139" longitude="-119.212479485"/>
            <obj_placement custom_msl="0" msl="0.000" resource="lib/airport/Common_Elements/Hangars/Long_Row_Beige.agp" show_level="2 A lot"/>
        </object>
        <object class="WED_Taxiway" id="9" parent_id="5">
            <sources/>
            <viewers/>
            <children>
                <child id="10"/>
            </children>
            <hierarchy hidden="0" locked="1" name="Taxiway / Ramp"/>
            <taxiway heading="0.00" roughness="0.00" surface="Asphalt"/>
        </object>
        <object class="WED_ObjPlacement" id="521" parent_id="579">
            <sources/>
            <viewers/>
            <children/>
            <hierarchy hidden="0" locked="1" name="lib/airport/Common_Elements/Miscellaneous/One_Traffic_Cone.obj"/>
            <point heading="0.00" latitude="34.198936068" longitude="-119.205823442"/>
            <obj_placement custom_msl="0" msl="0.000" resource="lib/airport/Common_Elements/Miscellaneous/One_Traffic_Cone.obj" show_level="4 Mega tons"/>
        </object>
        <object class="WED_Select" id="2" parent_id="1">
            <sources/>
            <viewers/>
            <children/>
            <hierarchy name="selection"/>
            <selection/>
        </object>
        <object class="WED_ObjPlacement" id="514" parent_id="579">
            <sources/>
            <viewers/>
            <children/>
            <hierarchy hidden="0" locked="1" name="lib/airport/Common_Elements/Miscellaneous/One_Traffic_Cone.obj"/>
            <point heading="0.00" latitude="34.198275350" longitude="-119.198478296"/>
            <obj_placement custom_msl="0" msl="0.000" resource="lib/airport/Common_Elements/Miscellaneous/One_Traffic_Cone.obj" show_level="4 Mega tons"/>
        </object>
        <object class="WED_AirportNode" id="66" parent_id="10">
            <sources/>
            <viewers/>
            <children/>
            <hierarchy hidden="0" locked="0" name="unnamed entity"/>
            <point ctrl_latitude_hi="0.000000000" ctrl_latitude_lo="0.000000000" ctrl_longitude_hi="0.000000000" ctrl_longitude_lo="0.000000000" latitude="34.200563040" longitude="-119.203056026" split="0"/>
            <markings>
                <marking value="Solid Yellow"/>
                <marking value="Taxiway Edge Lights (Blue)"/>
            </markings>
        </object>
        <object class="WED_Group" id="578" parent_id="437">
            <sources/>
            <viewers/>
            <children>
                <child id="489"/>
            </children>
            <hierarchy hidden="0" locked="1" name="TOWER"/>
        </object>
        <object class="WED_KeyObjects" id="3" parent_id="1">
            <sources/>
            <viewers/>
            <children/>
            <hierarchy name="choices"/>
            <keys>
                <key id="5" name="airport"/>
            </keys>
        </object>
        <object class="WED_ObjPlacement" id="515" parent_id="579">
            <sources/>
            <viewers/>
            <children/>
            <hierarchy hidden="0" locked="1" name="lib/airport/Common_Elements/Miscellaneous/One_Traffic_Cone.obj"/>
            <point heading="0.00" latitude="34.198503240" longitude="-119.197442627"/>
            <obj_placement custom_msl="0" msl="0.000" resource="lib/airport/Common_Elements/Miscellaneous/One_Traffic_Cone.obj" show_level="4 Mega tons"/>
        </object>
        <object class="WED_AirportNode" id="67" parent_id="10">
            <sources/>
            <viewers/>
            <children/>
            <hierarchy hidden="0" locked="0" name="unnamed entity"/>
            <point ctrl_latitude_hi="0.000000000" ctrl_latitude_lo="0.000000000" ctrl_longitude_hi="0.000000000" ctrl_longitude_lo="0.000000000" latitude="34.200587843" longitude="-119.203030332" split="0"/>
            <markings>
                <marking value="Solid Yellow"/>
                <marking value="Taxiway Edge Lights (Blue)"/>
            </markings>
        </object>
        <object class="WED_Group" id="579" parent_id="437">
            <sources/>
            <viewers/>
            <children>
                <child id="513"/>
                <child id="514"/>
                <child id="515"/>
                <child id="516"/>
                <child id="517"/>
                <child id="518"/>
                <child id="519"/>
                <child id="520"/>
                <child id="521"/>
                <child id="522"/>
            </children>
            <hierarchy hidden="0" locked="1" name="TRAFFIC CONES"/>
        </object>
        <object class="WED_Group" id="4" parent_id="1">
            <sources/>
            <viewers/>
            <children>
                <child id="5"/>
                <child id="437"/>
                <child id="406"/>
            </children>
            <hierarchy hidden="0" locked="0" name="world"/>
        </object>
        <object class="WED_ObjPlacement" id="516" parent_id="579">
            <sources/>
            <viewers/>
            <children/>
            <hierarchy hidden="0" locked="1" name="lib/airport/Common_Elements/Miscellaneous/One_Traffic_Cone.obj"/>
            <point heading="0.00" latitude="34.198501890" longitude="-119.197611932"/>
            <obj_placement custom_msl="0" msl="0.000" resource="lib/airport/Common_Elements/Miscellaneous/One_Traffic_Cone.obj" show_level="4 Mega tons"/>
        </object>
        <object class="WED_AirportNode" id="68" parent_id="10">
            <sources/>
            <viewers/>
            <children/>
            <hierarchy hidden="0" locked="0" name="unnamed entity"/>
            <point ctrl_latitude_hi="0.000000000" ctrl_latitude_lo="0.000000000" ctrl_longitude_hi="0.000000000" ctrl_longitude_lo="0.000000000" latitude="34.200603169" longitude="-119.203007512" split="0"/>
            <markings>
                <marking value="Solid Yellow"/>
                <marking value="Taxiway Edge Lights (Blue)"/>
            </markings>
        </object>
        <object class="WED_Group" id="580" parent_id="437">
            <sources/>
            <viewers/>
            <children>
                <child id="490"/>
                <child id="491"/>
                <child id="492"/>
                <child id="493"/>
                <child id="494"/>
                <child id="495"/>
                <child id="496"/>
                <child id="497"/>
                <child id="498"/>
                <child id="499"/>
                <child id="500"/>
                <child id="501"/>
                <child id="502"/>
                <child id="503"/>
            </children>
            <hierarchy hidden="0" locked="1" name="AIRCRAFT"/>
        </object>
        <object class="WED_Airport" id="5" parent_id="4">
            <sources/>
            <viewers/>
            <children>
                <child id="6"/>
                <child id="9"/>
                <child id="159"/>
                <child id="174"/>
                <child id="192"/>
                <child id="195"/>
                <child id="198"/>
                <child id="201"/>
                <child id="204"/>
                <child id="207"/>
                <child id="217"/>
                <child id="166"/>
                <child id="210"/>
                <child id="232"/>
                <child id="239"/>
                <child id="251"/>
                <child id="267"/>
                <child id="279"/>
                <child id="292"/>
                <child id="332"/>
                <child id="333"/>
                <child id="334"/>
                <child id="335"/>
                <child id="336"/>
                <child id="337"/>
                <child id="338"/>
                <child id="339"/>
                <child id="340"/>
                <child id="341"/>
                <child id="342"/>
                <child id="343"/>
                <child id="344"/>
                <child id="345"/>
                <child id="346"/>
                <child id="347"/>
                <child id="348"/>
                <child id="349"/>
                <child id="350"/>
                <child id="351"/>
                <child id="352"/>
                <child id="353"/>
                <child id="354"/>
                <child id="355"/>
                <child id="356"/>
                <child id="357"/>
                <child id="358"/>
                <child id="359"/>
                <child id="360"/>
                <child id="361"/>
                <child id="362"/>
                <child id="363"/>
                <child id="364"/>
                <child id="365"/>
                <child id="366"/>
                <child id="367"/>
                <child id="368"/>
                <child id="369"/>
            </children>
            <hierarchy hidden="1" locked="1" name="Oxnard"/>
            <airport elevation="13.1" has_atc="1" icao="KOXR" kind="Airport" scenery_id="-1"/>
        </object>
        <object class="WED_ObjPlacement" id="517" parent_id="579">
            <sources/>
            <viewers/>
            <children/>
            <hierarchy hidden="0" locked="1" name="lib/airport/Common_Elements/Miscellaneous/One_Traffic_Cone.obj"/>
            <point heading="0.00" latitude="34.198497675" longitude="-119.197787577"/>
            <obj_placement custom_msl="0" msl="0.000" resource="lib/airport/Common_Elements/Miscellaneous/One_Traffic_Cone.obj" show_level="4 Mega tons"/>
        </object>
        <object class="WED_Runway" id="6" parent_id="5">
            <sources/>
            <viewers/>
            <children>
                <child id="7"/>
                <child id="8"/>
            </children>
            <hierarchy hidden="0" locked="1" name="07/25"/>
            <line width="33.53"/>
            <runway REIL1="None" REIL2="None" TDZL1="0" TDZL2="0" app_lites1="None" app_lites2="MALSR" blastpad1="0.0" blastpad2="0.0" center_lites="0" displaced1="0.0" displaced2="420.0" distance_signs="0" edge_lites="MIRL" markings1="Non-Precision (US)" markings2="Precision (US)" roughness="0.00" shoulder="None" surface="Asphalt"/>
        </object>
        <object class="WED_ObjPlacement" id="518" parent_id="579">
            <sources/>
            <viewers/>
            <children/>
            <hierarchy hidden="0" locked="1" name="lib/airport/Common_Elements/Miscellaneous/One_Traffic_Cone.obj"/>
            <point heading="0.00" latitude="34.198497961" longitude="-119.197961632"/>
            <obj_placement custom_msl="0" msl="0.000" resource="lib/airport/Common_Elements/Miscellaneous/One_Traffic_Cone.obj" show_level="4 Mega tons"/>
        </object>
        <object class="WED_RunwayNode" id="7" parent_id="6">
            <sources/>
            <viewers/>
            <children/>
            <hierarchy hidden="0" locked="0" name="unnamed entity"/>
            <point latitude="34.200873665" longitude="-119.217101098"/>
        </object>
        <object class="WED_ObjPlacement" id="519" parent_id="579">
            <sources/>
            <viewers/>
            <children/>
            <hierarchy hidden="0" locked="1" name="lib/airport/Common_Elements/Miscellaneous/One_Traffic_Cone.obj"/>
            <point heading="0.00" latitude="34.198682347" longitude="-119.197319368"/>
            <obj_placement custom_msl="0" msl="0.000" resource="lib/airport/Common_Elements/Miscellaneous/One_Traffic_Cone.obj" show_level="4 Mega tons"/>
        </object>
        <object class="WED_RunwayNode" id="8" parent_id="6">
            <sources/>
            <viewers/>
            <children/>
            <hierarchy hidden="0" locked="0" name="unnamed entity"/>
            <point latitude="34.200736367" longitude="-119.197350180"/>
        </object>
        <object class="WED_ObjPlacement" id="520" parent_id="579">
            <sources/>
            <viewers/>
            <children/>
            <hierarchy hidden="0" locked="1" name="lib/airport/Common_Elements/Miscellaneous/One_Traffic_Cone.obj"/>
            <point heading="0.00" latitude="34.198884007" longitude="-119.197317764"/>
            <obj_placement custom_msl="0" msl="0.000" resource="lib/airport/Common_Elements/Miscellaneous/One_Traffic_Cone.obj" show_level="4 Mega tons"/>
        </object>
        <object class="WED_AirportChain" id="10" parent_id="9">
            <sources/>
            <viewers/>
            <children>
                <child id="11"/>
                <child id="12"/>
                <child id="13"/>
                <child id="14"/>
                <child id="413"/>
                <child id="414"/>
                <child id="17"/>
                <child id="19"/>
                <child id="20"/>
                <child id="407"/>
                <child id="21"/>
                <child id="22"/>
                <child id="23"/>
                <child id="26"/>
                <child id="27"/>
                <child id="28"/>
                <child id="613"/>
                <child id="29"/>
                <child id="30"/>
                <child id="31"/>
                <child id="32"/>
                <child id="33"/>
                <child id="34"/>
                <child id="612"/>
                <child id="35"/>
                <child id="36"/>
                <child id="38"/>
                <child id="39"/>
                <child id="408"/>
                <child id="611"/>
                <child id="409"/>
                <child id="40"/>
                <child id="41"/>
                <child id="42"/>
                <child id="43"/>
                <child id="44"/>
                <child id="45"/>
                <child id="46"/>
                <child id="47"/>
                <child id="48"/>
                <child id="49"/>
                <child id="50"/>
                <child id="51"/>
                <child id="52"/>
                <child id="53"/>
                <child id="54"/>
                <child id="55"/>
                <child id="56"/>
                <child id="57"/>
                <child id="58"/>
                <child id="59"/>
                <child id="60"/>
                <child id="61"/>
                <child id="62"/>
                <child id="63"/>
                <child id="64"/>
                <child id="65"/>
                <child id="66"/>
                <child id="67"/>
                <child id="68"/>
                <child id="69"/>
                <child id="70"/>
                <child id="71"/>
                <child id="72"/>
                <child id="73"/>
                <child id="74"/>
                <child id="75"/>
                <child id="76"/>
                <child id="77"/>
                <child id="78"/>
                <child id="79"/>
                <child id="80"/>
                <child id="81"/>
                <child id="82"/>
                <child id="83"/>
                <child id="84"/>
                <child id="415"/>
                <child id="85"/>
                <child id="86"/>
                <child id="87"/>
                <child id="88"/>
                <child id="89"/>
                <child id="90"/>
                <child id="91"/>
                <child id="92"/>
                <child id="93"/>
                <child id="94"/>
                <child id="95"/>
                <child id="96"/>
                <child id="97"/>
                <child id="98"/>
                <child id="99"/>
                <child id="100"/>
                <child id="101"/>
                <child id="102"/>
                <child id="103"/>
                <child id="104"/>
                <child id="105"/>
                <child id="106"/>
                <child id="107"/>
                <child id="108"/>
                <child id="109"/>
                <child id="110"/>
                <child id="111"/>
                <child id="112"/>
                <child id="113"/>
                <child id="114"/>
                <child id="115"/>
                <child id="116"/>
                <child id="117"/>
                <child id="118"/>
                <child id="119"/>
                <child id="120"/>
                <child id="121"/>
                <child id="122"/>
                <child id="123"/>
                <child id="124"/>
                <child id="125"/>
                <child id="126"/>
                <child id="127"/>
                <child id="128"/>
                <child id="129"/>
                <child id="130"/>
                <child id="131"/>
                <child id="132"/>
                <child id="133"/>
                <child id="134"/>
                <child id="135"/>
                <child id="410"/>
                <child id="411"/>
                <child id="136"/>
                <child id="137"/>
                <child id="138"/>
                <child id="139"/>
                <child id="140"/>
                <child id="141"/>
                <child id="142"/>
                <child id="143"/>
                <child id="144"/>
                <child id="145"/>
                <child id="146"/>
                <child id="147"/>
                <child id="148"/>
                <child id="149"/>
                <child id="150"/>
                <child id="151"/>
                <child id="152"/>
                <child id="153"/>
                <child id="154"/>
                <child id="155"/>
                <child id="156"/>
                <child id="157"/>
                <child id="158"/>
            </children>
            <hierarchy hidden="0" locked="0" name="Taxiways"/>
            <airport_chain closed="1"/>
        </object>
        <object class="WED_ObjPlacement" id="522" parent_id="579">
            <sources/>
            <viewers/>
            <children/>
            <hierarchy hidden="0" locked="1" name="lib/airport/Common_Elements/Miscellaneous/One_Traffic_Cone.obj"/>
            <point heading="0.00" latitude="34.199089992" longitude="-119.205564506"/>
            <obj_placement custom_msl="0" msl="0.000" resource="lib/airport/Common_Elements/Miscellaneous/One_Traffic_Cone.obj" show_level="4 Mega tons"/>
        </object>
        <object class="WED_AirportNode" id="11" parent_id="10">
            <sources/>
            <viewers/>
            <children/>
            <hierarchy hidden="0" locked="0" name="unnamed entity"/>
            <point ctrl_latitude_hi="0.000000000" ctrl_latitude_lo="0.000000000" ctrl_longitude_hi="0.000000000" ctrl_longitude_lo="0.000000000" latitude="34.200765760" longitude="-119.217060742" split="0"/>
            <markings/>
        </object>
        <object class="WED_ObjPlacement" id="523" parent_id="581">
            <sources/>
            <viewers/>
            <children/>
            <hierarchy hidden="0" locked="1" name="lib/airport/Ramp_Equipment/Luggage_Cart.obj"/>
            <point heading="19.19" latitude="34.199044404" longitude="-119.206227588"/>
            <obj_placement custom_msl="0" msl="0.000" resource="lib/airport/Ramp_Equipment/Luggage_Cart.obj" show_level="4 Mega tons"/>
        </object>
        <object class="WED_AirportNode" id="12" parent_id="10">
            <sources/>
            <viewers/>
            <children/>
            <hierarchy hidden="0" locked="0" name="unnamed entity"/>
            <point ctrl_latitude_hi="0.000000000" ctrl_latitude_lo="0.000000000" ctrl_longitude_hi="0.000000000" ctrl_longitude_lo="0.000000000" latitude="34.200744957" longitude="-119.217063732" split="0"/>
            <markings>
                <marking value="Solid Yellow"/>
                <marking value="Taxiway Edge Lights (Blue)"/>
            </markings>
        </object>
        <object class="WED_ObjPlacement" id="524" parent_id="581">
            <sources/>
            <viewers/>
            <children/>
            <hierarchy hidden="0" locked="1" name="lib/airport/Ramp_Equipment/Luggage_Cart.obj"/>
            <point heading="48.18" latitude="34.199019608" longitude="-119.206244755"/>
            <obj_placement custom_msl="0" msl="0.000" resource="lib/airport/Ramp_Equipment/Luggage_Cart.obj" show_level="4 Mega tons"/>
        </object>
        <object class="WED_AirportNode" id="13" parent_id="10">
            <sources/>
            <viewers/>
            <children/>
            <hierarchy hidden="0" locked="0" name="unnamed entity"/>
            <point ctrl_latitude_hi="0.000000000" ctrl_latitude_lo="0.000000000" ctrl_longitude_hi="0.000000000" ctrl_longitude_lo="0.000000000" latitude="34.200473233" longitude="-119.217065624" split="0"/>
            <markings>
                <marking value="Solid Yellow"/>
                <marking value="Taxiway Edge Lights (Blue)"/>
            </markings>
        </object>
        <object class="WED_ObjPlacement" id="525" parent_id="581">
            <sources/>
            <viewers/>
            <children/>
            <hierarchy hidden="0" locked="1" name="lib/airport/Ramp_Equipment/Luggage_Truck.obj"/>
            <point heading="44.50" latitude="34.198999104" longitude="-119.206271458"/>
            <obj_placement custom_msl="0" msl="0.000" resource="lib/airport/Ramp_Equipment/Luggage_Truck.obj" show_level="4 Mega tons"/>
        </object>
        <object class="WED_AirportNode" id="14" parent_id="10">
            <sources/>
            <viewers/>
            <children/>
            <hierarchy hidden="0" locked="0" name="unnamed entity"/>
            <point ctrl_latitude_hi="0.000000000" ctrl_latitude_lo="0.000000000" ctrl_longitude_hi="0.000000000" ctrl_longitude_lo="0.000000000" latitude="34.200197581" longitude="-119.217072587" split="0"/>
            <markings>
                <marking value="Solid Yellow"/>
                <marking value="Taxiway Edge Lights (Blue)"/>
            </markings>
        </object>
        <object class="WED_ObjPlacement" id="526" parent_id="581">
            <sources/>
            <viewers/>
            <children/>
            <hierarchy hidden="0" locked="1" name="lib/airport/Ramp_Equipment/GPU_1.obj"/>
            <point heading="302.69" latitude="34.198978599" longitude="-119.206143187"/>
            <obj_placement custom_msl="0" msl="0.000" resource="lib/airport/Ramp_Equipment/GPU_1.obj" show_level="4 Mega tons"/>
        </object>
        <object class="WED_AirportNode" id="17" parent_id="10">
            <sources/>
            <viewers/>
            <children/>
            <hierarchy hidden="0" locked="0" name="unnamed entity"/>
            <point ctrl_latitude_hi="0.000000000" ctrl_latitude_lo="0.000000000" ctrl_longitude_hi="0.000000000" ctrl_longitude_lo="0.000000000" latitude="34.200138443" longitude="-119.217694130" split="0"/>
            <markings>
                <marking value="Boundary Edge Lights (Red)"/>
            </markings>
        </object>
        <object class="WED_FacadePlacement" id="529" parent_id="582">
            <sources/>
            <viewers/>
            <children>
                <child id="530"/>
            </children>
            <hierarchy hidden="0" locked="1" name="lib/airport/Modern_Airports/Facades/modern2.fac"/>
            <facade_placement height="3.0" pick_walls="1" resource="lib/airport/Modern_Airports/Facades/modern2.fac" show_level="2 A lot"/>
        </object>
        <object class="WED_AirportNode" id="19" parent_id="10">
            <sources/>
            <viewers/>
            <children/>
            <hierarchy hidden="0" locked="0" name="unnamed entity"/>
            <point ctrl_latitude_hi="0.000000000" ctrl_latitude_lo="0.000000000" ctrl_longitude_hi="0.000000000" ctrl_longitude_lo="0.000000000" latitude="34.199424075" longitude="-119.217701506" split="0"/>
            <markings>
                <marking value="Boundary Edge Lights (Red)"/>
            </markings>
        </object>
        <object class="WED_FacadeNode" id="531" parent_id="530">
            <sources/>
            <viewers/>
            <children/>
            <hierarchy hidden="0" locked="0" name="Point"/>
            <point ctrl_latitude_hi="0.000000000" ctrl_latitude_lo="0.000000000" ctrl_longitude_hi="0.000000000" ctrl_longitude_lo="0.000000000" latitude="34.198424787" longitude="-119.206686658" split="0"/>
            <facade_node wall_type="Wall 1"/>
        </object>
        <object class="WED_AirportNode" id="20" parent_id="10">
            <sources/>
            <viewers/>
            <children/>
            <hierarchy hidden="0" locked="0" name="unnamed entity"/>
            <point ctrl_latitude_hi="0.000000000" ctrl_latitude_lo="0.000000000" ctrl_longitude_hi="0.000000000" ctrl_longitude_lo="0.000000000" latitude="34.199421497" longitude="-119.217320339" split="0"/>
            <markings>
                <marking value="Boundary Edge Lights (Red)"/>
            </markings>
        </object>
        <object class="WED_FacadeNode" id="532" parent_id="530">
            <sources/>
            <viewers/>
            <children/>
            <hierarchy hidden="0" locked="0" name="Point"/>
            <point ctrl_latitude_hi="0.000000000" ctrl_latitude_lo="0.000000000" ctrl_longitude_hi="0.000000000" ctrl_longitude_lo="0.000000000" latitude="34.198430167" longitude="-119.206340745" split="0"/>
            <facade_node wall_type="Wall 1"/>
        </object>
        <object class="WED_AirportNode" id="21" parent_id="10">
            <sources/>
            <viewers/>
            <children/>
            <hierarchy hidden="0" locked="0" name="unnamed entity"/>
            <point ctrl_latitude_hi="0.000000000" ctrl_latitude_lo="0.000000000" ctrl_longitude_hi="0.000000000" ctrl_longitude_lo="0.000000000" latitude="34.199300266" longitude="-119.217275364" split="0"/>
            <markings>
                <marking value="Boundary Edge Lights (Red)"/>
            </markings>
        </object>
        <object class="WED_FacadeNode" id="533" parent_id="530">
            <sources/>
            <viewers/>
            <children/>
            <hierarchy hidden="0" locked="0" name="Point"/>
            <point ctrl_latitude_hi="0.000000000" ctrl_latitude_lo="0.000000000" ctrl_longitude_hi="0.000000000" ctrl_longitude_lo="0.000000000" latitude="34.198533912" longitude="-119.206342659" split="0"/>
            <facade_node wall_type="Wall 1"/>
        </object>
        <object class="WED_AirportNode" id="22" parent_id="10">
            <sources/>
            <viewers/>
            <children/>
            <hierarchy hidden="0" locked="0" name="unnamed entity"/>
            <point ctrl_latitude_hi="0.000000000" ctrl_latitude_lo="0.000000000" ctrl_longitude_hi="0.000000000" ctrl_longitude_lo="0.000000000" latitude="34.199304816" longitude="-119.216709902" split="0"/>
            <markings>
                <marking value="Boundary Edge Lights (Red)"/>
            </markings>
        </object>
        <object class="WED_FacadeNode" id="534" parent_id="530">
            <sources/>
            <viewers/>
            <children/>
            <hierarchy hidden="0" locked="0" name="Point"/>
            <point ctrl_latitude_hi="0.000000000" ctrl_latitude_lo="0.000000000" ctrl_longitude_hi="0.000000000" ctrl_longitude_lo="0.000000000" latitude="34.198536296" longitude="-119.206189734" split="0"/>
            <facade_node wall_type="Wall 1"/>
        </object>
        <object class="WED_AirportNode" id="23" parent_id="10">
            <sources/>
            <viewers/>
            <children/>
            <hierarchy hidden="0" locked="0" name="unnamed entity"/>
            <point ctrl_latitude_hi="0.000000000" ctrl_latitude_lo="0.000000000" ctrl_longitude_hi="0.000000000" ctrl_longitude_lo="0.000000000" latitude="34.199043799" longitude="-119.216711827" split="0"/>
            <markings/>
        </object>
        <object class="WED_FacadeNode" id="535" parent_id="530">
            <sources/>
            <viewers/>
            <children/>
            <hierarchy hidden="0" locked="0" name="Point"/>
            <point ctrl_latitude_hi="0.000000000" ctrl_latitude_lo="0.000000000" ctrl_longitude_hi="0.000000000" ctrl_longitude_lo="0.000000000" latitude="34.198715113" longitude="-119.206189734" split="0"/>
            <facade_node wall_type="Wall 1"/>
        </object>
        <object class="WED_FacadeNode" id="536" parent_id="530">
            <sources/>
            <viewers/>
            <children/>
            <hierarchy hidden="0" locked="0" name="Point"/>
            <point ctrl_latitude_hi="0.000000000" ctrl_latitude_lo="0.000000000" ctrl_longitude_hi="0.000000000" ctrl_longitude_lo="0.000000000" latitude="34.198716543" longitude="-119.206430043" split="0"/>
            <facade_node wall_type="Wall 1"/>
        </object>
        <object class="WED_FacadeNode" id="537" parent_id="530">
            <sources/>
            <viewers/>
            <children/>
            <hierarchy hidden="0" locked="0" name="Point"/>
            <point ctrl_latitude_hi="0.000000000" ctrl_latitude_lo="0.000000000" ctrl_longitude_hi="0.000000000" ctrl_longitude_lo="0.000000000" latitude="34.198780150" longitude="-119.206430043" split="0"/>
            <facade_node wall_type="Wall 1"/>
        </object>
        <object class="WED_AirportNode" id="26" parent_id="10">
            <sources/>
            <viewers/>
            <children/>
            <hierarchy hidden="0" locked="0" name="unnamed entity"/>
            <point ctrl_latitude_hi="0.000000000" ctrl_latitude_lo="0.000000000" ctrl_longitude_hi="0.000000000" ctrl_longitude_lo="0.000000000" latitude="34.199027959" longitude="-119.212347174" split="0"/>
            <markings>
                <marking value="Boundary Edge Lights (Red)"/>
            </markings>
        </object>
        <object class="WED_FacadeNode" id="538" parent_id="530">
            <sources/>
            <viewers/>
            <children/>
            <hierarchy hidden="0" locked="0" name="Point"/>
            <point ctrl_latitude_hi="0.000000000" ctrl_latitude_lo="0.000000000" ctrl_longitude_hi="0.000000000" ctrl_longitude_lo="0.000000000" latitude="34.198780547" longitude="-119.206684289" split="0"/>
            <facade_node wall_type="Wall 1"/>
        </object>
        <object class="WED_AirportNode" id="27" parent_id="10">
            <sources/>
            <viewers/>
            <children/>
            <hierarchy hidden="0" locked="0" name="unnamed entity"/>
            <point ctrl_latitude_hi="0.000000000" ctrl_latitude_lo="0.000000000" ctrl_longitude_hi="0.000000000" ctrl_longitude_lo="0.000000000" latitude="34.199484450" longitude="-119.212355769" split="0"/>
            <markings>
                <marking value="Boundary Edge Lights (Red)"/>
            </markings>
        </object>
        <object class="WED_AirportNode" id="28" parent_id="10">
            <sources/>
            <viewers/>
            <children/>
            <hierarchy hidden="0" locked="0" name="unnamed entity"/>
            <point ctrl_latitude_hi="0.000000000" ctrl_latitude_lo="0.000000000" ctrl_longitude_hi="0.000000000" ctrl_longitude_lo="0.000000000" latitude="34.199452560" longitude="-119.207942360" split="0"/>
            <markings>
                <marking value="Boundary Edge Lights (Red)"/>
            </markings>
        </object>
        <object class="WED_AirportNode" id="29" parent_id="10">
            <sources/>
            <viewers/>
            <children/>
            <hierarchy hidden="0" locked="0" name="unnamed entity"/>
            <point ctrl_latitude_hi="0.000000000" ctrl_latitude_lo="0.000000000" ctrl_longitude_hi="0.000000000" ctrl_longitude_lo="0.000000000" latitude="34.198574020" longitude="-119.207993630" split="0"/>
            <markings/>
        </object>
        <object class="WED_AirportNode" id="30" parent_id="10">
            <sources/>
            <viewers/>
            <children/>
            <hierarchy hidden="0" locked="0" name="unnamed entity"/>
            <point ctrl_latitude_hi="0.000000000" ctrl_latitude_lo="0.000000000" ctrl_longitude_hi="0.000000000" ctrl_longitude_lo="0.000000000" latitude="34.198597110" longitude="-119.206058660" split="0"/>
            <markings>
                <marking value="Boundary Edge Lights (Red)"/>
            </markings>
        </object>
        <object class="WED_AirportNode" id="31" parent_id="10">
            <sources/>
            <viewers/>
            <children/>
            <hierarchy hidden="0" locked="0" name="unnamed entity"/>
            <point ctrl_latitude_hi="0.000000000" ctrl_latitude_lo="0.000000000" ctrl_longitude_hi="0.000000000" ctrl_longitude_lo="0.000000000" latitude="34.198604800" longitude="-119.205342350" split="0"/>
            <markings/>
        </object>
        <object class="WED_AirportNode" id="32" parent_id="10">
            <sources/>
            <viewers/>
            <children/>
            <hierarchy hidden="0" locked="0" name="unnamed entity"/>
            <point ctrl_latitude_hi="0.000000000" ctrl_latitude_lo="0.000000000" ctrl_longitude_hi="0.000000000" ctrl_longitude_lo="0.000000000" latitude="34.199148680" longitude="-119.205338660" split="0"/>
            <markings/>
        </object>
        <object class="WED_AirportNode" id="33" parent_id="10">
            <sources/>
            <viewers/>
            <children/>
            <hierarchy hidden="0" locked="0" name="unnamed entity"/>
            <point ctrl_latitude_hi="0.000000000" ctrl_latitude_lo="0.000000000" ctrl_longitude_hi="0.000000000" ctrl_longitude_lo="0.000000000" latitude="34.199165045" longitude="-119.203604944" split="0"/>
            <markings/>
        </object>
        <object class="WED_AirportNode" id="34" parent_id="10">
            <sources/>
            <viewers/>
            <children/>
            <hierarchy hidden="0" locked="0" name="unnamed entity"/>
            <point ctrl_latitude_hi="0.000000000" ctrl_latitude_lo="0.000000000" ctrl_longitude_hi="0.000000000" ctrl_longitude_lo="0.000000000" latitude="34.198261818" longitude="-119.203623961" split="0"/>
            <markings/>
        </object>
        <object class="WED_AirportNode" id="35" parent_id="10">
            <sources/>
            <viewers/>
            <children/>
            <hierarchy hidden="0" locked="0" name="unnamed entity"/>
            <point ctrl_latitude_hi="0.000000000" ctrl_latitude_lo="0.000000000" ctrl_longitude_hi="0.000000000" ctrl_longitude_lo="0.000000000" latitude="34.197666555" longitude="-119.202432834" split="0"/>
            <markings/>
        </object>
        <object class="WED_AirportNode" id="36" parent_id="10">
            <sources/>
            <viewers/>
            <children/>
            <hierarchy hidden="0" locked="0" name="unnamed entity"/>
            <point ctrl_latitude_hi="0.000000000" ctrl_latitude_lo="0.000000000" ctrl_longitude_hi="0.000000000" ctrl_longitude_lo="0.000000000" latitude="34.197684280" longitude="-119.200512020" split="0"/>
            <markings/>
        </object>
        <object class="WED_AirportNode" id="38" parent_id="10">
            <sources/>
            <viewers/>
            <children/>
            <hierarchy hidden="0" locked="0" name="unnamed entity"/>
            <point ctrl_latitude_hi="0.000000000" ctrl_latitude_lo="0.000000000" ctrl_longitude_hi="0.000000000" ctrl_longitude_lo="0.000000000" latitude="34.197709060" longitude="-119.197108237" split="0"/>
            <markings/>
        </object>
        <object class="WED_AirportNode" id="39" parent_id="10">
            <sources/>
            <viewers/>
            <children/>
            <hierarchy hidden="0" locked="0" name="unnamed entity"/>
            <point ctrl_latitude_hi="0.000000000" ctrl_latitude_lo="0.000000000" ctrl_longitude_hi="0.000000000" ctrl_longitude_lo="0.000000000" latitude="34.199380257" longitude="-119.197051752" split="0"/>
            <markings/>
        </object>
        <object class="WED_FacadePlacement" id="551" parent_id="610">
            <sources/>
            <viewers/>
            <children>
                <child id="552"/>
            </children>
            <hierarchy hidden="0" locked="0" name="lib/airport/Common_Elements/Fence_Facades/Fence.fac"/>
            <facade_placement height="1.0" pick_walls="1" resource="lib/airport/Common_Elements/Fence_Facades/Fence.fac" show_level="1 Default"/>
        </object>
        <object class="WED_AirportNode" id="40" parent_id="10">
            <sources/>
            <viewers/>
            <children/>
            <hierarchy hidden="0" locked="0" name="unnamed entity"/>
            <point ctrl_latitude_hi="0.000000000" ctrl_latitude_lo="0.000000000" ctrl_longitude_hi="0.000000000" ctrl_longitude_lo="0.000000000" latitude="34.199985219" longitude="-119.197388533" split="0"/>
            <markings>
                <marking value="Solid Yellow"/>
                <marking value="Taxiway Edge Lights (Blue)"/>
            </markings>
        </object>
        <object class="WED_FacadeRing" id="552" parent_id="551">
            <sources/>
            <viewers/>
            <children>
                <child id="553"/>
                <child id="554"/>
                <child id="555"/>
                <child id="556"/>
                <child id="586"/>
                <child id="585"/>
                <child id="557"/>
                <child id="609"/>
                <child id="608"/>
                <child id="560"/>
                <child id="561"/>
                <child id="562"/>
                <child id="601"/>
                <child id="603"/>
                <child id="604"/>
                <child id="602"/>
                <child id="605"/>
                <child id="564"/>
                <child id="607"/>
                <child id="606"/>
                <child id="565"/>
                <child id="566"/>
                <child id="567"/>
                <child id="568"/>
                <child id="569"/>
                <child id="570"/>
                <child id="571"/>
                <child id="572"/>
                <child id="573"/>
            </children>
            <hierarchy hidden="0" locked="0" name="Ring"/>
        </object>
        <object class="WED_AirportNode" id="41" parent_id="10">
            <sources/>
            <viewers/>
            <children/>
            <hierarchy hidden="0" locked="0" name="unnamed entity"/>
            <point ctrl_latitude_hi="0.000000000" ctrl_latitude_lo="0.000000000" ctrl_longitude_hi="0.000000000" ctrl_longitude_lo="0.000000000" latitude="34.200051087" longitude="-119.197395608" split="0"/>
            <markings>
                <marking value="Solid Yellow"/>
                <marking value="Taxiway Edge Lights (Blue)"/>
            </markings>
        </object>
        <object class="WED_FacadeNode" id="553" parent_id="552">
            <sources/>
            <viewers/>
            <children/>
            <hierarchy hidden="0" locked="0" name="Point"/>
            <point ctrl_latitude_hi="0.000000000" ctrl_latitude_lo="0.000000000" ctrl_longitude_hi="0.000000000" ctrl_longitude_lo="0.000000000" latitude="34.198597601" longitude="-119.206172751" split="0"/>
            <facade_node wall_type="Wall 1"/>
        </object>
        <object class="WED_AirportNode" id="42" parent_id="10">
            <sources/>
            <viewers/>
            <children/>
            <hierarchy hidden="0" locked="0" name="unnamed entity"/>
            <point ctrl_latitude_hi="0.000000000" ctrl_latitude_lo="0.000000000" ctrl_longitude_hi="0.000000000" ctrl_longitude_lo="0.000000000" latitude="34.200405120" longitude="-119.197395942" split="0"/>
            <markings>
                <marking value="Solid Yellow"/>
                <marking value="Taxiway Edge Lights (Blue)"/>
            </markings>
        </object>
        <object class="WED_FacadeNode" id="554" parent_id="552">
            <sources/>
            <viewers/>
            <children/>
            <hierarchy hidden="0" locked="0" name="Point"/>
            <point ctrl_latitude_hi="0.000000000" ctrl_latitude_lo="0.000000000" ctrl_longitude_hi="0.000000000" ctrl_longitude_lo="0.000000000" latitude="34.198603323" longitude="-119.205343042" split="0"/>
            <facade_node wall_type="Wall 1"/>
        </object>
        <object class="WED_AirportNode" id="43" parent_id="10">
            <sources/>
            <viewers/>
            <children/>
            <hierarchy hidden="0" locked="0" name="unnamed entity"/>
            <point ctrl_latitude_hi="0.000000000" ctrl_latitude_lo="0.000000000" ctrl_longitude_hi="0.000000000" ctrl_longitude_lo="0.000000000" latitude="34.200591661" longitude="-119.197389996" split="0"/>
            <markings/>
        </object>
        <object class="WED_FacadeNode" id="555" parent_id="552">
            <sources/>
            <viewers/>
            <children/>
            <hierarchy hidden="0" locked="0" name="Point"/>
            <point ctrl_latitude_hi="0.000000000" ctrl_latitude_lo="0.000000000" ctrl_longitude_hi="0.000000000" ctrl_longitude_lo="0.000000000" latitude="34.199146925" longitude="-119.205337797" split="0"/>
            <facade_node wall_type="Wall 1"/>
        </object>
        <object class="WED_AirportNode" id="44" parent_id="10">
            <sources/>
            <viewers/>
            <children/>
            <hierarchy hidden="0" locked="0" name="unnamed entity"/>
            <point ctrl_latitude_hi="0.000000000" ctrl_latitude_lo="0.000000000" ctrl_longitude_hi="0.000000000" ctrl_longitude_lo="0.000000000" latitude="34.200642400" longitude="-119.197393990" split="0"/>
            <markings/>
        </object>
        <object class="WED_FacadeNode" id="556" parent_id="552">
            <sources/>
            <viewers/>
            <children/>
            <hierarchy hidden="0" locked="0" name="Point"/>
            <point ctrl_latitude_hi="0.000000000" ctrl_latitude_lo="0.000000000" ctrl_longitude_hi="0.000000000" ctrl_longitude_lo="0.000000000" latitude="34.199165045" longitude="-119.203604944" split="0"/>
            <facade_node wall_type="Wall 1"/>
        </object>
        <object class="WED_AirportNode" id="45" parent_id="10">
            <sources/>
            <viewers/>
            <children/>
            <hierarchy hidden="0" locked="0" name="unnamed entity"/>
            <point ctrl_latitude_hi="0.000000000" ctrl_latitude_lo="0.000000000" ctrl_longitude_hi="0.000000000" ctrl_longitude_lo="0.000000000" latitude="34.200640370" longitude="-119.197822700" split="0"/>
            <markings/>
        </object>
        <object class="WED_FacadeNode" id="557" parent_id="552">
            <sources/>
            <viewers/>
            <children/>
            <hierarchy hidden="0" locked="0" name="Point"/>
            <point ctrl_latitude_hi="0.000000000" ctrl_latitude_lo="0.000000000" ctrl_longitude_hi="0.000000000" ctrl_longitude_lo="0.000000000" latitude="34.197666555" longitude="-119.202432834" split="0"/>
            <facade_node wall_type="Wall 1"/>
        </object>
        <object class="WED_AirportNode" id="46" parent_id="10">
            <sources/>
            <viewers/>
            <children/>
            <hierarchy hidden="0" locked="0" name="unnamed entity"/>
            <point ctrl_latitude_hi="0.000000000" ctrl_latitude_lo="0.000000000" ctrl_longitude_hi="0.000000000" ctrl_longitude_lo="0.000000000" latitude="34.200602588" longitude="-119.197768029" split="0"/>
            <markings>
                <marking value="Solid Yellow"/>
                <marking value="Taxiway Edge Lights (Blue)"/>
            </markings>
        </object>
        <object class="WED_AirportNode" id="47" parent_id="10">
            <sources/>
            <viewers/>
            <children/>
            <hierarchy hidden="0" locked="0" name="unnamed entity"/>
            <point ctrl_latitude_hi="0.000000000" ctrl_latitude_lo="0.000000000" ctrl_longitude_hi="0.000000000" ctrl_longitude_lo="0.000000000" latitude="34.200548602" longitude="-119.197672301" split="0"/>
            <markings>
                <marking value="Solid Yellow"/>
                <marking value="Taxiway Edge Lights (Blue)"/>
            </markings>
        </object>
        <object class="WED_AirportNode" id="48" parent_id="10">
            <sources/>
            <viewers/>
            <children/>
            <hierarchy hidden="0" locked="0" name="unnamed entity"/>
            <point ctrl_latitude_hi="0.000000000" ctrl_latitude_lo="0.000000000" ctrl_longitude_hi="0.000000000" ctrl_longitude_lo="0.000000000" latitude="34.200500786" longitude="-119.197649632" split="0"/>
            <markings>
                <marking value="Solid Yellow"/>
                <marking value="Taxiway Edge Lights (Blue)"/>
            </markings>
        </object>
        <object class="WED_FacadeNode" id="560" parent_id="552">
            <sources/>
            <viewers/>
            <children/>
            <hierarchy hidden="0" locked="0" name="Point"/>
            <point ctrl_latitude_hi="0.000000000" ctrl_latitude_lo="0.000000000" ctrl_longitude_hi="0.000000000" ctrl_longitude_lo="0.000000000" latitude="34.197705748" longitude="-119.198562768" split="0"/>
            <facade_node wall_type="Wall 4"/>
        </object>
        <object class="WED_AirportNode" id="49" parent_id="10">
            <sources/>
            <viewers/>
            <children/>
            <hierarchy hidden="0" locked="0" name="unnamed entity"/>
            <point ctrl_latitude_hi="0.000000000" ctrl_latitude_lo="0.000000000" ctrl_longitude_hi="0.000000000" ctrl_longitude_lo="0.000000000" latitude="34.200219510" longitude="-119.197648200" split="0"/>
            <markings>
                <marking value="Solid Yellow"/>
                <marking value="Taxiway Edge Lights (Blue)"/>
            </markings>
        </object>
        <object class="WED_FacadeNode" id="561" parent_id="552">
            <sources/>
            <viewers/>
            <children/>
            <hierarchy hidden="0" locked="0" name="Point"/>
            <point ctrl_latitude_hi="0.000000000" ctrl_latitude_lo="0.000000000" ctrl_longitude_hi="0.000000000" ctrl_longitude_lo="0.000000000" latitude="34.197704065" longitude="-119.198443407" split="0"/>
            <facade_node wall_type="Wall 1"/>
        </object>
        <object class="WED_AirportNode" id="50" parent_id="10">
            <sources/>
            <viewers/>
            <children/>
            <hierarchy hidden="0" locked="0" name="unnamed entity"/>
            <point ctrl_latitude_hi="0.000000000" ctrl_latitude_lo="0.000000000" ctrl_longitude_hi="0.000000000" ctrl_longitude_lo="0.000000000" latitude="34.200048278" longitude="-119.197649131" split="0"/>
            <markings>
                <marking value="Solid Yellow"/>
                <marking value="Taxiway Edge Lights (Blue)"/>
            </markings>
        </object>
        <object class="WED_FacadeNode" id="562" parent_id="552">
            <sources/>
            <viewers/>
            <children/>
            <hierarchy hidden="0" locked="0" name="Point"/>
            <point ctrl_latitude_hi="0.000000000" ctrl_latitude_lo="0.000000000" ctrl_longitude_hi="0.000000000" ctrl_longitude_lo="0.000000000" latitude="34.197709060" longitude="-119.197108237" split="0"/>
            <facade_node wall_type="Wall 1"/>
        </object>
        <object class="WED_AirportNode" id="51" parent_id="10">
            <sources/>
            <viewers/>
            <children/>
            <hierarchy hidden="0" locked="0" name="unnamed entity"/>
            <point ctrl_latitude_hi="0.000000000" ctrl_latitude_lo="0.000000000" ctrl_longitude_hi="0.000000000" ctrl_longitude_lo="0.000000000" latitude="34.199935167" longitude="-119.197651194" split="0"/>
            <markings>
                <marking value="Solid Yellow"/>
                <marking value="Taxiway Edge Lights (Blue)"/>
            </markings>
        </object>
        <object class="WED_AirportNode" id="52" parent_id="10">
            <sources/>
            <viewers/>
            <children/>
            <hierarchy hidden="0" locked="0" name="unnamed entity"/>
            <point ctrl_latitude_hi="0.000000000" ctrl_latitude_lo="0.000000000" ctrl_longitude_hi="0.000000000" ctrl_longitude_lo="0.000000000" latitude="34.199874361" longitude="-119.197676977" split="0"/>
            <markings>
                <marking value="Solid Yellow"/>
                <marking value="Taxiway Edge Lights (Blue)"/>
            </markings>
        </object>
        <object class="WED_FacadeNode" id="564" parent_id="552">
            <sources/>
            <viewers/>
            <children/>
            <hierarchy hidden="0" locked="0" name="Point"/>
            <point ctrl_latitude_hi="0.000000000" ctrl_latitude_lo="0.000000000" ctrl_longitude_hi="0.000000000" ctrl_longitude_lo="0.000000000" latitude="34.201700032" longitude="-119.216687652" split="0"/>
            <facade_node wall_type="Wall 1"/>
        </object>
        <object class="WED_AirportNode" id="53" parent_id="10">
            <sources/>
            <viewers/>
            <children/>
            <hierarchy hidden="0" locked="0" name="unnamed entity"/>
            <point ctrl_latitude_hi="0.000000000" ctrl_latitude_lo="0.000000000" ctrl_longitude_hi="0.000000000" ctrl_longitude_lo="0.000000000" latitude="34.199836061" longitude="-119.197752402" split="0"/>
            <markings>
                <marking value="Solid Yellow"/>
                <marking value="Taxiway Edge Lights (Blue)"/>
            </markings>
        </object>
        <object class="WED_FacadeNode" id="565" parent_id="552">
            <sources/>
            <viewers/>
            <children/>
            <hierarchy hidden="0" locked="0" name="Point"/>
            <point ctrl_latitude_hi="0.000000000" ctrl_latitude_lo="0.000000000" ctrl_longitude_hi="0.000000000" ctrl_longitude_lo="0.000000000" latitude="34.199332464" longitude="-119.220940859" split="0"/>
            <facade_node wall_type="Wall 1"/>
        </object>
        <object class="WED_AirportNode" id="54" parent_id="10">
            <sources/>
            <viewers/>
            <children/>
            <hierarchy hidden="0" locked="0" name="unnamed entity"/>
            <point ctrl_latitude_hi="0.000000000" ctrl_latitude_lo="0.000000000" ctrl_longitude_hi="0.000000000" ctrl_longitude_lo="0.000000000" latitude="34.199835669" longitude="-119.198313809" split="0"/>
            <markings>
                <marking value="Solid Yellow"/>
                <marking value="Taxiway Edge Lights (Blue)"/>
            </markings>
        </object>
        <object class="WED_FacadeNode" id="566" parent_id="552">
            <sources/>
            <viewers/>
            <children/>
            <hierarchy hidden="0" locked="0" name="Point"/>
            <point ctrl_latitude_hi="0.000000000" ctrl_latitude_lo="0.000000000" ctrl_longitude_hi="0.000000000" ctrl_longitude_lo="0.000000000" latitude="34.199295224" longitude="-119.216751068" split="0"/>
            <facade_node wall_type="Wall 1"/>
        </object>
        <object class="WED_AirportNode" id="55" parent_id="10">
            <sources/>
            <viewers/>
            <children/>
            <hierarchy hidden="0" locked="0" name="unnamed entity"/>
            <point ctrl_latitude_hi="0.000000000" ctrl_latitude_lo="0.000000000" ctrl_longitude_hi="0.000000000" ctrl_longitude_lo="0.000000000" latitude="34.199851688" longitude="-119.200299646" split="0"/>
            <markings>
                <marking value="Solid Yellow"/>
                <marking value="Taxiway Edge Lights (Blue)"/>
            </markings>
        </object>
        <object class="WED_FacadeNode" id="567" parent_id="552">
            <sources/>
            <viewers/>
            <children/>
            <hierarchy hidden="0" locked="0" name="Point"/>
            <point ctrl_latitude_hi="0.000000000" ctrl_latitude_lo="0.000000000" ctrl_longitude_hi="0.000000000" ctrl_longitude_lo="0.000000000" latitude="34.199033436" longitude="-119.216751068" split="0"/>
            <facade_node wall_type="Wall 1"/>
        </object>
        <object class="WED_AirportNode" id="56" parent_id="10">
            <sources/>
            <viewers/>
            <children/>
            <hierarchy hidden="0" locked="0" name="unnamed entity"/>
            <point ctrl_latitude_hi="0.000000000" ctrl_latitude_lo="0.000000000" ctrl_longitude_hi="0.000000000" ctrl_longitude_lo="0.000000000" latitude="34.199860998" longitude="-119.202134373" split="0"/>
            <markings>
                <marking value="Solid Yellow"/>
                <marking value="Taxiway Edge Lights (Blue)"/>
            </markings>
        </object>
        <object class="WED_FacadeNode" id="568" parent_id="552">
            <sources/>
            <viewers/>
            <children/>
            <hierarchy hidden="0" locked="0" name="Point"/>
            <point ctrl_latitude_hi="0.000000000" ctrl_latitude_lo="0.000000000" ctrl_longitude_hi="0.000000000" ctrl_longitude_lo="0.000000000" latitude="34.199023899" longitude="-119.212393664" split="0"/>
            <facade_node wall_type="Wall 1"/>
        </object>
        <object class="WED_AirportNode" id="57" parent_id="10">
            <sources/>
            <viewers/>
            <children/>
            <hierarchy hidden="0" locked="0" name="unnamed entity"/>
            <point ctrl_latitude_hi="0.000000000" ctrl_latitude_lo="0.000000000" ctrl_longitude_hi="0.000000000" ctrl_longitude_lo="0.000000000" latitude="34.199867500" longitude="-119.202917909" split="0"/>
            <markings>
                <marking value="Solid Yellow"/>
                <marking value="Taxiway Edge Lights (Blue)"/>
            </markings>
        </object>
        <object class="WED_FacadeNode" id="569" parent_id="552">
            <sources/>
            <viewers/>
            <children/>
            <hierarchy hidden="0" locked="0" name="Point"/>
            <point ctrl_latitude_hi="0.000000000" ctrl_latitude_lo="0.000000000" ctrl_longitude_hi="0.000000000" ctrl_longitude_lo="0.000000000" latitude="34.199491207" longitude="-119.212393664" split="0"/>
            <facade_node wall_type="Wall 1"/>
        </object>
        <object class="WED_AirportNode" id="58" parent_id="10">
            <sources/>
            <viewers/>
            <children/>
            <hierarchy hidden="0" locked="0" name="unnamed entity"/>
            <point ctrl_latitude_hi="0.000000000" ctrl_latitude_lo="0.000000000" ctrl_longitude_hi="0.000000000" ctrl_longitude_lo="0.000000000" latitude="34.199883685" longitude="-119.202993815" split="0"/>
            <markings>
                <marking value="Solid Yellow"/>
                <marking value="Taxiway Edge Lights (Blue)"/>
            </markings>
        </object>
        <object class="WED_FacadeNode" id="570" parent_id="552">
            <sources/>
            <viewers/>
            <children/>
            <hierarchy hidden="0" locked="0" name="Point"/>
            <point ctrl_latitude_hi="0.000000000" ctrl_latitude_lo="0.000000000" ctrl_longitude_hi="0.000000000" ctrl_longitude_lo="0.000000000" latitude="34.199452560" longitude="-119.207942360" split="0"/>
            <facade_node wall_type="Wall 1"/>
        </object>
        <object class="WED_AirportNode" id="59" parent_id="10">
            <sources/>
            <viewers/>
            <children/>
            <hierarchy hidden="0" locked="0" name="unnamed entity"/>
            <point ctrl_latitude_hi="0.000000000" ctrl_latitude_lo="0.000000000" ctrl_longitude_hi="0.000000000" ctrl_longitude_lo="0.000000000" latitude="34.199908560" longitude="-119.203036300" split="0"/>
            <markings>
                <marking value="Solid Yellow"/>
                <marking value="Taxiway Edge Lights (Blue)"/>
            </markings>
        </object>
        <object class="WED_FacadeNode" id="571" parent_id="552">
            <sources/>
            <viewers/>
            <children/>
            <hierarchy hidden="0" locked="0" name="Point"/>
            <point ctrl_latitude_hi="0.000000000" ctrl_latitude_lo="0.000000000" ctrl_longitude_hi="0.000000000" ctrl_longitude_lo="0.000000000" latitude="34.198421571" longitude="-119.207999986" split="0"/>
            <facade_node wall_type="Wall 4"/>
        </object>
        <object class="WED_AirportNode" id="60" parent_id="10">
            <sources/>
            <viewers/>
            <children/>
            <hierarchy hidden="0" locked="0" name="unnamed entity"/>
            <point ctrl_latitude_hi="0.000000000" ctrl_latitude_lo="0.000000000" ctrl_longitude_hi="0.000000000" ctrl_longitude_lo="0.000000000" latitude="34.199949620" longitude="-119.203073060" split="0"/>
            <markings>
                <marking value="Solid Yellow"/>
                <marking value="Taxiway Edge Lights (Blue)"/>
            </markings>
        </object>
        <object class="WED_FacadeNode" id="572" parent_id="552">
            <sources/>
            <viewers/>
            <children/>
            <hierarchy hidden="0" locked="0" name="Point"/>
            <point ctrl_latitude_hi="0.000000000" ctrl_latitude_lo="0.000000000" ctrl_longitude_hi="0.000000000" ctrl_longitude_lo="0.000000000" latitude="34.198418782" longitude="-119.207872229" split="0"/>
            <facade_node wall_type="Wall 1"/>
        </object>
        <object class="WED_AirportNode" id="61" parent_id="10">
            <sources/>
            <viewers/>
            <children/>
            <hierarchy hidden="0" locked="0" name="unnamed entity"/>
            <point ctrl_latitude_hi="0.000000000" ctrl_latitude_lo="0.000000000" ctrl_longitude_hi="0.000000000" ctrl_longitude_lo="0.000000000" latitude="34.199988710" longitude="-119.203078313" split="0"/>
            <markings>
                <marking value="Solid Yellow"/>
                <marking value="Taxiway Edge Lights (Blue)"/>
            </markings>
        </object>
        <object class="WED_FacadeNode" id="573" parent_id="552">
            <sources/>
            <viewers/>
            <children/>
            <hierarchy hidden="0" locked="0" name="Point"/>
            <point ctrl_latitude_hi="0.000000000" ctrl_latitude_lo="0.000000000" ctrl_longitude_hi="0.000000000" ctrl_longitude_lo="0.000000000" latitude="34.198424787" longitude="-119.206686658" split="0"/>
            <facade_node wall_type="Wall 1"/>
        </object>
        <object class="WED_AirportNode" id="62" parent_id="10">
            <sources/>
            <viewers/>
            <children/>
            <hierarchy hidden="0" locked="0" name="unnamed entity"/>
            <point ctrl_latitude_hi="0.000000000" ctrl_latitude_lo="0.000000000" ctrl_longitude_hi="0.000000000" ctrl_longitude_lo="0.000000000" latitude="34.200093347" longitude="-119.203074970" split="0"/>
            <markings>
                <marking value="Solid Yellow"/>
                <marking value="Taxiway Edge Lights (Blue)"/>
            </markings>
        </object>
        <object class="WED_Group" id="574" parent_id="437">
            <sources/>
            <viewers/>
            <children>
                <child id="450"/>
                <child id="451"/>
                <child id="452"/>
                <child id="453"/>
                <child id="454"/>
                <child id="455"/>
                <child id="456"/>
                <child id="457"/>
                <child id="458"/>
                <child id="459"/>
                <child id="460"/>
                <child id="461"/>
                <child id="462"/>
                <child id="463"/>
                <child id="464"/>
                <child id="465"/>
                <child id="466"/>
                <child id="467"/>
                <child id="468"/>
                <child id="469"/>
                <child id="470"/>
            </children>
            <hierarchy hidden="0" locked="1" name="RAMP LIGHTS"/>
        </object>
        <object class="WED_AirportNode" id="63" parent_id="10">
            <sources/>
            <viewers/>
            <children/>
            <hierarchy hidden="0" locked="0" name="unnamed entity"/>
            <point ctrl_latitude_hi="0.000000000" ctrl_latitude_lo="0.000000000" ctrl_longitude_hi="0.000000000" ctrl_longitude_lo="0.000000000" latitude="34.200253260" longitude="-119.203074492" split="0"/>
            <markings>
                <marking value="Solid Yellow"/>
                <marking value="Taxiway Edge Lights (Blue)"/>
            </markings>
        </object>
        <object class="WED_Group" id="575" parent_id="437">
            <sources/>
            <viewers/>
            <children>
                <child id="617"/>
                <child id="471"/>
                <child id="472"/>
                <child id="584"/>
                <child id="485"/>
            </children>
            <hierarchy hidden="0" locked="0" name="OFFICES"/>
        </object>
        <object class="WED_AirportNode" id="64" parent_id="10">
            <sources/>
            <viewers/>
            <children/>
            <hierarchy hidden="0" locked="0" name="unnamed entity"/>
            <point ctrl_latitude_hi="0.000000000" ctrl_latitude_lo="0.000000000" ctrl_longitude_hi="0.000000000" ctrl_longitude_lo="0.000000000" latitude="34.200433863" longitude="-119.203071930" split="0"/>
            <markings>
                <marking value="Solid Yellow"/>
                <marking value="Taxiway Edge Lights (Blue)"/>
            </markings>
        </object>
        <object class="WED_Group" id="576" parent_id="437">
            <sources/>
            <viewers/>
            <children>
                <child id="588"/>
                <child id="596"/>
                <child id="577"/>
                <child id="475"/>
                <child id="476"/>
                <child id="477"/>
                <child id="478"/>
                <child id="479"/>
                <child id="480"/>
                <child id="481"/>
                <child id="482"/>
                <child id="483"/>
                <child id="484"/>
                <child id="508"/>
            </children>
            <hierarchy hidden="0" locked="1" name="HANGARS"/>
        </object>
        <object class="WED_AirportNode" id="69" parent_id="10">
            <sources/>
            <viewers/>
            <children/>
            <hierarchy hidden="0" locked="0" name="unnamed entity"/>
            <point ctrl_latitude_hi="0.000000000" ctrl_latitude_lo="0.000000000" ctrl_longitude_hi="0.000000000" ctrl_longitude_lo="0.000000000" latitude="34.200618165" longitude="-119.202976730" split="0"/>
            <markings>
                <marking value="Solid Yellow"/>
                <marking value="Taxiway Edge Lights (Blue)"/>
            </markings>
        </object>
        <object class="WED_Group" id="581" parent_id="437">
            <sources/>
            <viewers/>
            <children>
                <child id="523"/>
                <child id="524"/>
                <child id="525"/>
                <child id="526"/>
                <child id="527"/>
                <child id="528"/>
            </children>
            <hierarchy hidden="0" locked="1" name="RAMP EQUIPMENT"/>
        </object>
        <object class="WED_AirportNode" id="70" parent_id="10">
            <sources/>
            <viewers/>
            <children/>
            <hierarchy hidden="0" locked="0" name="unnamed entity"/>
            <point ctrl_latitude_hi="0.000000000" ctrl_latitude_lo="0.000000000" ctrl_longitude_hi="0.000000000" ctrl_longitude_lo="0.000000000" latitude="34.200639624" longitude="-119.202962457" split="0"/>
            <markings/>
        </object>
        <object class="WED_Group" id="582" parent_id="437">
            <sources/>
            <viewers/>
            <children>
                <child id="616"/>
                <child id="529"/>
                <child id="619"/>
            </children>
            <hierarchy hidden="0" locked="1" name="BUILDINGS"/>
        </object>
        <object class="WED_AirportNode" id="71" parent_id="10">
            <sources/>
            <viewers/>
            <children/>
            <hierarchy hidden="0" locked="0" name="unnamed entity"/>
            <point ctrl_latitude_hi="0.000000000" ctrl_latitude_lo="0.000000000" ctrl_longitude_hi="0.000000000" ctrl_longitude_lo="0.000000000" latitude="34.200670913" longitude="-119.202967569" split="0"/>
            <markings/>
        </object>
        <object class="WED_AirportNode" id="72" parent_id="10">
            <sources/>
            <viewers/>
            <children/>
            <hierarchy hidden="0" locked="0" name="unnamed entity"/>
            <point ctrl_latitude_hi="0.000000000" ctrl_latitude_lo="0.000000000" ctrl_longitude_hi="0.000000000" ctrl_longitude_lo="0.000000000" latitude="34.200676590" longitude="-119.203364580" split="0"/>
            <markings/>
        </object>
        <object class="WED_ObjPlacement" id="584" parent_id="575">
            <sources/>
            <viewers/>
            <children/>
            <hierarchy hidden="0" locked="0" name="lib/airport/Common_Elements/Misc_Buildings/Med_Office_1.agp"/>
            <point heading="0.00" latitude="34.198556513" longitude="-119.204076967"/>
            <obj_placement custom_msl="0" msl="0.000" resource="lib/airport/Common_Elements/Misc_Buildings/Med_Office_1.agp" show_level="2 A lot"/>
        </object>
        <object class="WED_AirportNode" id="73" parent_id="10">
            <sources/>
            <viewers/>
            <children/>
            <hierarchy hidden="0" locked="0" name="unnamed entity"/>
            <point ctrl_latitude_hi="0.000000000" ctrl_latitude_lo="0.000000000" ctrl_longitude_hi="0.000000000" ctrl_longitude_lo="0.000000000" latitude="34.200643883" longitude="-119.203353216" split="0"/>
            <markings>
                <marking value="Solid Yellow"/>
                <marking value="Taxiway Edge Lights (Blue)"/>
            </markings>
        </object>
        <object class="WED_FacadeNode" id="585" parent_id="552">
            <sources/>
            <viewers/>
            <children/>
            <hierarchy hidden="0" locked="0" name="Point.1"/>
            <point ctrl_latitude_hi="0.000000000" ctrl_latitude_lo="0.000000000" ctrl_longitude_hi="0.000000000" ctrl_longitude_lo="0.000000000" latitude="34.198257900" longitude="-119.202438821" split="0"/>
            <facade_node wall_type="Wall 1"/>
        </object>
        <object class="WED_AirportNode" id="74" parent_id="10">
            <sources/>
            <viewers/>
            <children/>
            <hierarchy hidden="0" locked="0" name="unnamed entity"/>
            <point ctrl_latitude_hi="0.000000000" ctrl_latitude_lo="0.000000000" ctrl_longitude_hi="0.000000000" ctrl_longitude_lo="0.000000000" latitude="34.200619731" longitude="-119.203309684" split="0"/>
            <markings>
                <marking value="Solid Yellow"/>
                <marking value="Taxiway Edge Lights (Blue)"/>
            </markings>
        </object>
        <object class="WED_FacadeNode" id="586" parent_id="552">
            <sources/>
            <viewers/>
            <children/>
            <hierarchy hidden="0" locked="0" name="Point.1"/>
            <point ctrl_latitude_hi="0.000000000" ctrl_latitude_lo="0.000000000" ctrl_longitude_hi="0.000000000" ctrl_longitude_lo="0.000000000" latitude="34.198261818" longitude="-119.203623961" split="0"/>
            <facade_node wall_type="Wall 1"/>
        </object>
        <object class="WED_AirportNode" id="75" parent_id="10">
            <sources/>
            <viewers/>
            <children/>
            <hierarchy hidden="0" locked="0" name="unnamed entity"/>
            <point ctrl_latitude_hi="0.000000000" ctrl_latitude_lo="0.000000000" ctrl_longitude_hi="0.000000000" ctrl_longitude_lo="0.000000000" latitude="34.200599810" longitude="-119.203278024" split="0"/>
            <markings>
                <marking value="Solid Yellow"/>
                <marking value="Taxiway Edge Lights (Blue)"/>
            </markings>
        </object>
        <object class="WED_AirportNode" id="76" parent_id="10">
            <sources/>
            <viewers/>
            <children/>
            <hierarchy hidden="0" locked="0" name="unnamed entity"/>
            <point ctrl_latitude_hi="0.000000000" ctrl_latitude_lo="0.000000000" ctrl_longitude_hi="0.000000000" ctrl_longitude_lo="0.000000000" latitude="34.200563836" longitude="-119.203252480" split="0"/>
            <markings>
                <marking value="Solid Yellow"/>
                <marking value="Taxiway Edge Lights (Blue)"/>
            </markings>
        </object>
        <object class="WED_ObjPlacement" id="588" parent_id="576">
            <sources/>
            <viewers/>
            <children/>
            <hierarchy hidden="0" locked="0" name="lib/airport/Common_Elements/Hangars/FBO_Modern1.agp"/>
            <point heading="-180.00" latitude="34.198237101" longitude="-119.197646180"/>
            <obj_placement custom_msl="0" msl="0.000" resource="lib/airport/Common_Elements/Hangars/FBO_Modern1.agp" show_level="1 Default"/>
        </object>
        <object class="WED_AirportNode" id="77" parent_id="10">
            <sources/>
            <viewers/>
            <children/>
            <hierarchy hidden="0" locked="0" name="unnamed entity"/>
            <point ctrl_latitude_hi="0.000000000" ctrl_latitude_lo="0.000000000" ctrl_longitude_hi="0.000000000" ctrl_longitude_lo="0.000000000" latitude="34.200526554" longitude="-119.203238159" split="0"/>
            <markings>
                <marking value="Solid Yellow"/>
                <marking value="Taxiway Edge Lights (Blue)"/>
            </markings>
        </object>
        <object class="WED_AirportNode" id="78" parent_id="10">
            <sources/>
            <viewers/>
            <children/>
            <hierarchy hidden="0" locked="0" name="unnamed entity"/>
            <point ctrl_latitude_hi="0.000000000" ctrl_latitude_lo="0.000000000" ctrl_longitude_hi="0.000000000" ctrl_longitude_lo="0.000000000" latitude="34.200347160" longitude="-119.203238879" split="0"/>
            <markings>
                <marking value="Solid Yellow"/>
                <marking value="Taxiway Edge Lights (Blue)"/>
            </markings>
        </object>
        <object class="WED_AirportNode" id="79" parent_id="10">
            <sources/>
            <viewers/>
            <children/>
            <hierarchy hidden="0" locked="0" name="unnamed entity"/>
            <point ctrl_latitude_hi="0.000000000" ctrl_latitude_lo="0.000000000" ctrl_longitude_hi="0.000000000" ctrl_longitude_lo="0.000000000" latitude="34.200091347" longitude="-119.203239225" split="0"/>
            <markings>
                <marking value="Solid Yellow"/>
                <marking value="Taxiway Edge Lights (Blue)"/>
            </markings>
        </object>
        <object class="WED_AirportNode" id="80" parent_id="10">
            <sources/>
            <viewers/>
            <children/>
            <hierarchy hidden="0" locked="0" name="unnamed entity"/>
            <point ctrl_latitude_hi="0.000000000" ctrl_latitude_lo="0.000000000" ctrl_longitude_hi="0.000000000" ctrl_longitude_lo="0.000000000" latitude="34.199998922" longitude="-119.203241041" split="0"/>
            <markings>
                <marking value="Solid Yellow"/>
                <marking value="Taxiway Edge Lights (Blue)"/>
            </markings>
        </object>
        <object class="WED_AirportNode" id="81" parent_id="10">
            <sources/>
            <viewers/>
            <children/>
            <hierarchy hidden="0" locked="0" name="unnamed entity"/>
            <point ctrl_latitude_hi="0.000000000" ctrl_latitude_lo="0.000000000" ctrl_longitude_hi="0.000000000" ctrl_longitude_lo="0.000000000" latitude="34.199952938" longitude="-119.203258982" split="0"/>
            <markings>
                <marking value="Solid Yellow"/>
                <marking value="Taxiway Edge Lights (Blue)"/>
            </markings>
        </object>
        <object class="WED_AirportNode" id="82" parent_id="10">
            <sources/>
            <viewers/>
            <children/>
            <hierarchy hidden="0" locked="0" name="unnamed entity"/>
            <point ctrl_latitude_hi="0.000000000" ctrl_latitude_lo="0.000000000" ctrl_longitude_hi="0.000000000" ctrl_longitude_lo="0.000000000" latitude="34.199909071" longitude="-119.203298405" split="0"/>
            <markings>
                <marking value="Solid Yellow"/>
                <marking value="Taxiway Edge Lights (Blue)"/>
            </markings>
        </object>
        <object class="WED_AirportNode" id="83" parent_id="10">
            <sources/>
            <viewers/>
            <children/>
            <hierarchy hidden="0" locked="0" name="unnamed entity"/>
            <point ctrl_latitude_hi="0.000000000" ctrl_latitude_lo="0.000000000" ctrl_longitude_hi="0.000000000" ctrl_longitude_lo="0.000000000" latitude="34.199884176" longitude="-119.203346831" split="0"/>
            <markings>
                <marking value="Solid Yellow"/>
                <marking value="Taxiway Edge Lights (Blue)"/>
            </markings>
        </object>
        <object class="WED_FacadeRing" id="595" parent_id="596">
            <sources/>
            <viewers/>
            <children>
                <child id="597"/>
                <child id="598"/>
                <child id="599"/>
                <child id="600"/>
            </children>
            <hierarchy hidden="0" locked="0" name="Facade 1 outer ring"/>
        </object>
        <object class="WED_AirportNode" id="84" parent_id="10">
            <sources/>
            <viewers/>
            <children/>
            <hierarchy hidden="0" locked="0" name="unnamed entity"/>
            <point ctrl_latitude_hi="0.000000000" ctrl_latitude_lo="0.000000000" ctrl_longitude_hi="0.000000000" ctrl_longitude_lo="0.000000000" latitude="34.199874700" longitude="-119.203449911" split="0"/>
            <markings>
                <marking value="Solid Yellow"/>
                <marking value="Taxiway Edge Lights (Blue)"/>
            </markings>
        </object>
        <object class="WED_FacadePlacement" id="596" parent_id="576">
            <sources/>
            <viewers/>
            <children>
                <child id="595"/>
            </children>
            <hierarchy hidden="0" locked="0" name="lib/airport/Common_Elements/Hangars/White_Hangar.fac"/>
            <facade_placement height="10.0" pick_walls="0" resource="lib/airport/Common_Elements/Hangars/White_Hangar.fac" show_level="1 Default"/>
        </object>
        <object class="WED_AirportNode" id="85" parent_id="10">
            <sources/>
            <viewers/>
            <children/>
            <hierarchy hidden="0" locked="0" name="unnamed entity"/>
            <point ctrl_latitude_hi="0.000000000" ctrl_latitude_lo="0.000000000" ctrl_longitude_hi="0.000000000" ctrl_longitude_lo="0.000000000" latitude="34.199889979" longitude="-119.205048276" split="0"/>
            <markings>
                <marking value="Solid Yellow"/>
                <marking value="Taxiway Edge Lights (Blue)"/>
            </markings>
        </object>
        <object class="WED_FacadeNode" id="597" parent_id="595">
            <sources/>
            <viewers/>
            <children/>
            <hierarchy hidden="0" locked="0" name="Node 1"/>
            <point ctrl_latitude_hi="0.000000000" ctrl_latitude_lo="0.000000000" ctrl_longitude_hi="0.000000000" ctrl_longitude_lo="0.000000000" latitude="34.197800783" longitude="-119.199775316" split="0"/>
            <facade_node wall_type="Wall 1"/>
        </object>
        <object class="WED_AirportNode" id="86" parent_id="10">
            <sources/>
            <viewers/>
            <children/>
            <hierarchy hidden="0" locked="0" name="unnamed entity"/>
            <point ctrl_latitude_hi="0.000000000" ctrl_latitude_lo="0.000000000" ctrl_longitude_hi="0.000000000" ctrl_longitude_lo="0.000000000" latitude="34.199903185" longitude="-119.206352776" split="0"/>
            <markings>
                <marking value="Solid Yellow"/>
                <marking value="Taxiway Edge Lights (Blue)"/>
            </markings>
        </object>
        <object class="WED_FacadeNode" id="598" parent_id="595">
            <sources/>
            <viewers/>
            <children/>
            <hierarchy hidden="0" locked="0" name="Node 2"/>
            <point ctrl_latitude_hi="0.000000000" ctrl_latitude_lo="0.000000000" ctrl_longitude_hi="0.000000000" ctrl_longitude_lo="0.000000000" latitude="34.197800783" longitude="-119.199107975" split="0"/>
            <facade_node wall_type="Wall 1"/>
        </object>
        <object class="WED_AirportNode" id="87" parent_id="10">
            <sources/>
            <viewers/>
            <children/>
            <hierarchy hidden="0" locked="0" name="unnamed entity"/>
            <point ctrl_latitude_hi="0.000000000" ctrl_latitude_lo="0.000000000" ctrl_longitude_hi="0.000000000" ctrl_longitude_lo="0.000000000" latitude="34.199910365" longitude="-119.206444919" split="0"/>
            <markings>
                <marking value="Solid Yellow"/>
                <marking value="Taxiway Edge Lights (Blue)"/>
            </markings>
        </object>
        <object class="WED_FacadeNode" id="599" parent_id="595">
            <sources/>
            <viewers/>
            <children/>
            <hierarchy hidden="0" locked="0" name="Node 3"/>
            <point ctrl_latitude_hi="0.000000000" ctrl_latitude_lo="0.000000000" ctrl_longitude_hi="0.000000000" ctrl_longitude_lo="0.000000000" latitude="34.198210817" longitude="-119.199107975" split="0"/>
            <facade_node wall_type="Wall 1"/>
        </object>
        <object class="WED_AirportNode" id="88" parent_id="10">
            <sources/>
            <viewers/>
            <children/>
            <hierarchy hidden="0" locked="0" name="unnamed entity"/>
            <point ctrl_latitude_hi="0.000000000" ctrl_latitude_lo="0.000000000" ctrl_longitude_hi="0.000000000" ctrl_longitude_lo="0.000000000" latitude="34.199941454" longitude="-119.206562099" split="0"/>
            <markings>
                <marking value="Solid Yellow"/>
                <marking value="Taxiway Edge Lights (Blue)"/>
            </markings>
        </object>
        <object class="WED_FacadeNode" id="600" parent_id="595">
            <sources/>
            <viewers/>
            <children/>
            <hierarchy hidden="0" locked="0" name="Node 4"/>
            <point ctrl_latitude_hi="0.000000000" ctrl_latitude_lo="0.000000000" ctrl_longitude_hi="0.000000000" ctrl_longitude_lo="0.000000000" latitude="34.198205560" longitude="-119.199775316" split="0"/>
            <facade_node wall_type="Wall 1"/>
        </object>
        <object class="WED_AirportNode" id="89" parent_id="10">
            <sources/>
            <viewers/>
            <children/>
            <hierarchy hidden="0" locked="0" name="unnamed entity"/>
            <point ctrl_latitude_hi="0.000000000" ctrl_latitude_lo="0.000000000" ctrl_longitude_hi="0.000000000" ctrl_longitude_lo="0.000000000" latitude="34.200001180" longitude="-119.206690595" split="0"/>
            <markings>
                <marking value="Solid Yellow"/>
                <marking value="Taxiway Edge Lights (Blue)"/>
            </markings>
        </object>
        <object class="WED_FacadeNode" id="601" parent_id="552">
            <sources/>
            <viewers/>
            <children/>
            <hierarchy hidden="0" locked="0" name="Point.1"/>
            <point ctrl_latitude_hi="0.000000000" ctrl_latitude_lo="0.000000000" ctrl_longitude_hi="0.000000000" ctrl_longitude_lo="0.000000000" latitude="34.199380257" longitude="-119.197051752" split="0"/>
            <facade_node wall_type="Wall 1"/>
        </object>
        <object class="WED_AirportNode" id="90" parent_id="10">
            <sources/>
            <viewers/>
            <children/>
            <hierarchy hidden="0" locked="0" name="unnamed entity"/>
            <point ctrl_latitude_hi="0.000000000" ctrl_latitude_lo="0.000000000" ctrl_longitude_hi="0.000000000" ctrl_longitude_lo="0.000000000" latitude="34.200083593" longitude="-119.206807688" split="0"/>
            <markings>
                <marking value="Solid Yellow"/>
                <marking value="Taxiway Edge Lights (Blue)"/>
            </markings>
        </object>
        <object class="WED_FacadeNode" id="602" parent_id="552">
            <sources/>
            <viewers/>
            <children/>
            <hierarchy hidden="0" locked="0" name="Point.1.1"/>
            <point ctrl_latitude_hi="0.000000000" ctrl_latitude_lo="0.000000000" ctrl_longitude_hi="0.000000000" ctrl_longitude_lo="0.000000000" latitude="34.199724198" longitude="-119.194894110" split="0"/>
            <facade_node wall_type="Wall 1"/>
        </object>
        <object class="WED_AirportNode" id="91" parent_id="10">
            <sources/>
            <viewers/>
            <children/>
            <hierarchy hidden="0" locked="0" name="unnamed entity"/>
            <point ctrl_latitude_hi="0.000000000" ctrl_latitude_lo="0.000000000" ctrl_longitude_hi="0.000000000" ctrl_longitude_lo="0.000000000" latitude="34.200118565" longitude="-119.206848616" split="0"/>
            <markings>
                <marking value="Solid Yellow"/>
                <marking value="Taxiway Edge Lights (Blue)"/>
            </markings>
        </object>
        <object class="WED_FacadeNode" id="603" parent_id="552">
            <sources/>
            <viewers/>
            <children/>
            <hierarchy hidden="0" locked="0" name="Point.1.1"/>
            <point ctrl_latitude_hi="0.000000000" ctrl_latitude_lo="0.000000000" ctrl_longitude_hi="0.000000000" ctrl_longitude_lo="0.000000000" latitude="34.199380590" longitude="-119.196830268" split="0"/>
            <facade_node wall_type="Wall 1"/>
        </object>
        <object class="WED_AirportNode" id="92" parent_id="10">
            <sources/>
            <viewers/>
            <children/>
            <hierarchy hidden="0" locked="0" name="unnamed entity"/>
            <point ctrl_latitude_hi="0.000000000" ctrl_latitude_lo="0.000000000" ctrl_longitude_hi="0.000000000" ctrl_longitude_lo="0.000000000" latitude="34.200223193" longitude="-119.206977428" split="0"/>
            <markings>
                <marking value="Solid Yellow"/>
                <marking value="Taxiway Edge Lights (Blue)"/>
            </markings>
        </object>
        <object class="WED_FacadeNode" id="604" parent_id="552">
            <sources/>
            <viewers/>
            <children/>
            <hierarchy hidden="0" locked="0" name="Point.1.1.1"/>
            <point ctrl_latitude_hi="0.000000000" ctrl_latitude_lo="0.000000000" ctrl_longitude_hi="0.000000000" ctrl_longitude_lo="0.000000000" latitude="34.199731127" longitude="-119.196825095" split="0"/>
            <facade_node wall_type="Wall 1"/>
        </object>
        <object class="WED_AirportNode" id="93" parent_id="10">
            <sources/>
            <viewers/>
            <children/>
            <hierarchy hidden="0" locked="0" name="unnamed entity"/>
            <point ctrl_latitude_hi="0.000000000" ctrl_latitude_lo="0.000000000" ctrl_longitude_hi="0.000000000" ctrl_longitude_lo="0.000000000" latitude="34.200320113" longitude="-119.207038013" split="0"/>
            <markings>
                <marking value="Solid Yellow"/>
                <marking value="Taxiway Edge Lights (Blue)"/>
            </markings>
        </object>
        <object class="WED_FacadeNode" id="605" parent_id="552">
            <sources/>
            <viewers/>
            <children/>
            <hierarchy hidden="0" locked="0" name="Point.1.1.1"/>
            <point ctrl_latitude_hi="0.000000000" ctrl_latitude_lo="0.000000000" ctrl_longitude_hi="0.000000000" ctrl_longitude_lo="0.000000000" latitude="34.201451366" longitude="-119.194872540" split="0"/>
            <facade_node wall_type="Wall 1"/>
        </object>
        <object class="WED_AirportNode" id="94" parent_id="10">
            <sources/>
            <viewers/>
            <children/>
            <hierarchy hidden="0" locked="0" name="unnamed entity"/>
            <point ctrl_latitude_hi="0.000000000" ctrl_latitude_lo="0.000000000" ctrl_longitude_hi="0.000000000" ctrl_longitude_lo="0.000000000" latitude="34.200431174" longitude="-119.207043611" split="0"/>
            <markings>
                <marking value="Solid Yellow"/>
                <marking value="Taxiway Edge Lights (Blue)"/>
            </markings>
        </object>
        <object class="WED_FacadeNode" id="606" parent_id="552">
            <sources/>
            <viewers/>
            <children/>
            <hierarchy hidden="0" locked="0" name="Point.1"/>
            <point ctrl_latitude_hi="0.000000000" ctrl_latitude_lo="0.000000000" ctrl_longitude_hi="0.000000000" ctrl_longitude_lo="0.000000000" latitude="34.202061760" longitude="-119.220787744" split="0"/>
            <facade_node wall_type="Wall 1"/>
        </object>
        <object class="WED_AirportNode" id="95" parent_id="10">
            <sources/>
            <viewers/>
            <children/>
            <hierarchy hidden="0" locked="0" name="unnamed entity"/>
            <point ctrl_latitude_hi="0.000000000" ctrl_latitude_lo="0.000000000" ctrl_longitude_hi="0.000000000" ctrl_longitude_lo="0.000000000" latitude="34.200519437" longitude="-119.207010236" split="0"/>
            <markings>
                <marking value="Solid Yellow"/>
                <marking value="Taxiway Edge Lights (Blue)"/>
            </markings>
        </object>
        <object class="WED_FacadeNode" id="607" parent_id="552">
            <sources/>
            <viewers/>
            <children/>
            <hierarchy hidden="0" locked="0" name="Point.1"/>
            <point ctrl_latitude_hi="0.000000000" ctrl_latitude_lo="0.000000000" ctrl_longitude_hi="0.000000000" ctrl_longitude_lo="0.000000000" latitude="34.202043858" longitude="-119.216678406" split="0"/>
            <facade_node wall_type="Wall 1"/>
        </object>
        <object class="WED_AirportNode" id="96" parent_id="10">
            <sources/>
            <viewers/>
            <children/>
            <hierarchy hidden="0" locked="0" name="unnamed entity"/>
            <point ctrl_latitude_hi="0.000000000" ctrl_latitude_lo="0.000000000" ctrl_longitude_hi="0.000000000" ctrl_longitude_lo="0.000000000" latitude="34.200559063" longitude="-119.206971219" split="0"/>
            <markings>
                <marking value="Solid Yellow"/>
                <marking value="Taxiway Edge Lights (Blue)"/>
            </markings>
        </object>
        <object class="WED_FacadeNode" id="608" parent_id="552">
            <sources/>
            <viewers/>
            <children/>
            <hierarchy hidden="0" locked="0" name="Point.1"/>
            <point ctrl_latitude_hi="0.000000000" ctrl_latitude_lo="0.000000000" ctrl_longitude_hi="0.000000000" ctrl_longitude_lo="0.000000000" latitude="34.197700051" longitude="-119.200227577" split="0"/>
            <facade_node wall_type="Wall 1"/>
        </object>
        <object class="WED_AirportNode" id="97" parent_id="10">
            <sources/>
            <viewers/>
            <children/>
            <hierarchy hidden="0" locked="0" name="unnamed entity"/>
            <point ctrl_latitude_hi="0.000000000" ctrl_latitude_lo="0.000000000" ctrl_longitude_hi="0.000000000" ctrl_longitude_lo="0.000000000" latitude="34.200596074" longitude="-119.206926213" split="0"/>
            <markings>
                <marking value="Solid Yellow"/>
                <marking value="Taxiway Edge Lights (Blue)"/>
            </markings>
        </object>
        <object class="WED_FacadeNode" id="609" parent_id="552">
            <sources/>
            <viewers/>
            <children/>
            <hierarchy hidden="0" locked="0" name="Point.1"/>
            <point ctrl_latitude_hi="0.000000000" ctrl_latitude_lo="0.000000000" ctrl_longitude_hi="0.000000000" ctrl_longitude_lo="0.000000000" latitude="34.197696996" longitude="-119.200347913" split="0"/>
            <facade_node wall_type="Wall 4"/>
        </object>
        <object class="WED_AirportNode" id="98" parent_id="10">
            <sources/>
            <viewers/>
            <children/>
            <hierarchy hidden="0" locked="0" name="unnamed entity"/>
            <point ctrl_latitude_hi="0.000000000" ctrl_latitude_lo="0.000000000" ctrl_longitude_hi="0.000000000" ctrl_longitude_lo="0.000000000" latitude="34.200650807" longitude="-119.206846835" split="0"/>
            <markings>
                <marking value="Solid Yellow"/>
                <marking value="Taxiway Edge Lights (Blue)"/>
            </markings>
        </object>
        <object class="WED_Group" id="610" parent_id="437">
            <sources/>
            <viewers/>
            <children>
                <child id="551"/>
            </children>
            <hierarchy hidden="0" locked="1" name="FENCES"/>
        </object>
        <object class="WED_AirportNode" id="99" parent_id="10">
            <sources/>
            <viewers/>
            <children/>
            <hierarchy hidden="0" locked="0" name="unnamed entity"/>
            <point ctrl_latitude_hi="0.000000000" ctrl_latitude_lo="0.000000000" ctrl_longitude_hi="0.000000000" ctrl_longitude_lo="0.000000000" latitude="34.200677696" longitude="-119.206806787" split="0"/>
            <markings/>
        </object>
        <object class="WED_AirportNode" id="611" parent_id="10">
            <sources/>
            <viewers/>
            <children/>
            <hierarchy hidden="0" locked="0" name="unnamed entity.1.1"/>
            <point ctrl_latitude_hi="0.000000000" ctrl_latitude_lo="0.000000000" ctrl_longitude_hi="0.000000000" ctrl_longitude_lo="0.000000000" latitude="34.199731127" longitude="-119.196825095" split="0"/>
            <markings>
                <marking value="Boundary Edge Lights (Red)"/>
            </markings>
        </object>
        <object class="WED_AirportNode" id="100" parent_id="10">
            <sources/>
            <viewers/>
            <children/>
            <hierarchy hidden="0" locked="0" name="unnamed entity"/>
            <point ctrl_latitude_hi="0.000000000" ctrl_latitude_lo="0.000000000" ctrl_longitude_hi="0.000000000" ctrl_longitude_lo="0.000000000" latitude="34.200717677" longitude="-119.206805103" split="0"/>
            <markings/>
        </object>
        <object class="WED_AirportNode" id="612" parent_id="10">
            <sources/>
            <viewers/>
            <children/>
            <hierarchy hidden="0" locked="0" name="unnamed entity.1"/>
            <point ctrl_latitude_hi="0.000000000" ctrl_latitude_lo="0.000000000" ctrl_longitude_hi="0.000000000" ctrl_longitude_lo="0.000000000" latitude="34.198257900" longitude="-119.202438821" split="0"/>
            <markings/>
        </object>
        <object class="WED_AirportNode" id="101" parent_id="10">
            <sources/>
            <viewers/>
            <children/>
            <hierarchy hidden="0" locked="0" name="unnamed entity"/>
            <point ctrl_latitude_hi="0.000000000" ctrl_latitude_lo="0.000000000" ctrl_longitude_hi="0.000000000" ctrl_longitude_lo="0.000000000" latitude="34.200725060" longitude="-119.207952590" split="0"/>
            <markings/>
        </object>
        <object class="WED_AirportNode" id="613" parent_id="10">
            <sources/>
            <viewers/>
            <children/>
            <hierarchy hidden="0" locked="0" name="unnamed entity.1"/>
            <point ctrl_latitude_hi="0.000000000" ctrl_latitude_lo="0.000000000" ctrl_longitude_hi="0.000000000" ctrl_longitude_lo="0.000000000" latitude="34.198871355" longitude="-119.207980706" split="0"/>
            <markings/>
        </object>
        <object class="WED_AirportNode" id="102" parent_id="10">
            <sources/>
            <viewers/>
            <children/>
            <hierarchy hidden="0" locked="0" name="unnamed entity"/>
            <point ctrl_latitude_hi="0.000000000" ctrl_latitude_lo="0.000000000" ctrl_longitude_hi="0.000000000" ctrl_longitude_lo="0.000000000" latitude="34.200687000" longitude="-119.207897260" split="0"/>
            <markings>
                <marking value="Solid Yellow"/>
                <marking value="Taxiway Edge Lights (Blue)"/>
            </markings>
        </object>
        <object class="WED_AirportNode" id="103" parent_id="10">
            <sources/>
            <viewers/>
            <children/>
            <hierarchy hidden="0" locked="0" name="unnamed entity"/>
            <point ctrl_latitude_hi="0.000000000" ctrl_latitude_lo="0.000000000" ctrl_longitude_hi="0.000000000" ctrl_longitude_lo="0.000000000" latitude="34.200541488" longitude="-119.207755039" split="0"/>
            <markings>
                <marking value="Solid Yellow"/>
                <marking value="Taxiway Edge Lights (Blue)"/>
            </markings>
        </object>
        <object class="WED_AirportNode" id="104" parent_id="10">
            <sources/>
            <viewers/>
            <children/>
            <hierarchy hidden="0" locked="0" name="unnamed entity"/>
            <point ctrl_latitude_hi="0.000000000" ctrl_latitude_lo="0.000000000" ctrl_longitude_hi="0.000000000" ctrl_longitude_lo="0.000000000" latitude="34.200429853" longitude="-119.207646278" split="0"/>
            <markings>
                <marking value="Solid Yellow"/>
                <marking value="Taxiway Edge Lights (Blue)"/>
            </markings>
        </object>
        <object class="WED_ObjPlacement" id="616" parent_id="582">
            <sources/>
            <viewers/>
            <children/>
            <hierarchy hidden="0" locked="1" name="lib/airport/Common_Elements/Misc_Buildings/Fire_Station_Lg.agp"/>
            <point heading="90.00" latitude="34.198955092" longitude="-119.207086415"/>
            <obj_placement custom_msl="0" msl="0.000" resource="lib/airport/Common_Elements/Misc_Buildings/Fire_Station_Lg.agp" show_level="2 A lot"/>
        </object>
        <object class="WED_AirportNode" id="105" parent_id="10">
            <sources/>
            <viewers/>
            <children/>
            <hierarchy hidden="0" locked="0" name="unnamed entity"/>
            <point ctrl_latitude_hi="0.000000000" ctrl_latitude_lo="0.000000000" ctrl_longitude_hi="0.000000000" ctrl_longitude_lo="0.000000000" latitude="34.200310610" longitude="-119.207536520" split="0"/>
            <markings>
                <marking value="Solid Yellow"/>
                <marking value="Taxiway Edge Lights (Blue)"/>
            </markings>
        </object>
        <object class="WED_ObjPlacement" id="617" parent_id="575">
            <sources/>
            <viewers/>
            <children/>
            <hierarchy hidden="0" locked="0" name="lib/airport/Common_Elements/Misc_Buildings/Small_Office_1.agp"/>
            <point heading="0.00" latitude="34.198709979" longitude="-119.207574118"/>
            <obj_placement custom_msl="0" msl="0.000" resource="lib/airport/Common_Elements/Misc_Buildings/Small_Office_1.agp" show_level="2 A lot"/>
        </object>
        <object class="WED_AirportNode" id="106" parent_id="10">
            <sources/>
            <viewers/>
            <children/>
            <hierarchy hidden="0" locked="0" name="unnamed entity"/>
            <point ctrl_latitude_hi="0.000000000" ctrl_latitude_lo="0.000000000" ctrl_longitude_hi="0.000000000" ctrl_longitude_lo="0.000000000" latitude="34.200242373" longitude="-119.207472983" split="0"/>
            <markings>
                <marking value="Solid Yellow"/>
                <marking value="Taxiway Edge Lights (Blue)"/>
            </markings>
        </object>
        <object class="WED_FacadeRing" id="618" parent_id="619">
            <sources/>
            <viewers/>
            <children>
                <child id="620"/>
                <child id="621"/>
                <child id="622"/>
                <child id="623"/>
            </children>
            <hierarchy hidden="0" locked="0" name="Facade 1 outer ring"/>
        </object>
        <object class="WED_AirportNode" id="107" parent_id="10">
            <sources/>
            <viewers/>
            <children/>
            <hierarchy hidden="0" locked="0" name="unnamed entity"/>
            <point ctrl_latitude_hi="0.000000000" ctrl_latitude_lo="0.000000000" ctrl_longitude_hi="0.000000000" ctrl_longitude_lo="0.000000000" latitude="34.200172989" longitude="-119.207431320" split="0"/>
            <markings>
                <marking value="Solid Yellow"/>
                <marking value="Taxiway Edge Lights (Blue)"/>
            </markings>
        </object>
        <object class="WED_FacadePlacement" id="619" parent_id="582">
            <sources/>
            <viewers/>
            <children>
                <child id="618"/>
            </children>
            <hierarchy hidden="0" locked="1" name="lib/airport/Common_Elements/Misc_Buildings/White_Warehouse.fac"/>
            <facade_placement height="10.0" pick_walls="0" resource="lib/airport/Common_Elements/Misc_Buildings/White_Warehouse.fac" show_level="1 Default"/>
        </object>
        <object class="WED_AirportNode" id="108" parent_id="10">
            <sources/>
            <viewers/>
            <children/>
            <hierarchy hidden="0" locked="0" name="unnamed entity"/>
            <point ctrl_latitude_hi="0.000000000" ctrl_latitude_lo="0.000000000" ctrl_longitude_hi="0.000000000" ctrl_longitude_lo="0.000000000" latitude="34.200125071" longitude="-119.207427024" split="0"/>
            <markings>
                <marking value="Solid Yellow"/>
                <marking value="Taxiway Edge Lights (Blue)"/>
            </markings>
        </object>
